City,Latitude,Longitude
Брешия,45.3208,10.1252
Рим,41.5330,12.3040
Турин,45.0413,7.4112
Пескара,42.2730,14.1210
Port,42.0535,11.4748
Прато,43.5249,11.0549
Координаты,45.048625,6.84939
L'Aquila,42.419817,13.517259
Фишано,40.46,14.48
Пётркув-Трыбунальский,51.2419,19.4211
